City_ID,City,Lat,Lng,Max Temp,Humidity,Cloudiness,Wind Speed,Country,Date
0,gotse delchev,41.5667,23.7333,78.73,58,0,0.54,BG,1689919890
1,papatowai,-46.5619,169.4708,43.25,67,9,17.83,NZ,1689919890
2,happy valley-goose bay,53.3168,-60.3315,57.51,82,20,4.61,CA,1689919891
3,west island,-12.1568,96.8225,80.58,69,98,18.41,CC,1689919891
4,ribeira grande,38.5167,-28.7,68.77,94,100,4.0,PT,1689919679
5,pangai,-19.8,-174.35,75.63,84,75,14.14,TO,1689919640
6,kingston,17.997,-76.7936,82.2,85,57,1.01,JM,1689919838
7,cill airne,52.05,-9.5167,52.18,93,95,3.6,IE,1689919893
8,mili,6.0815,171.735,83.08,82,69,18.81,MH,1689919893
9,tiksi,71.6872,128.8694,44.02,66,95,5.86,RU,1689919894
10,hasaki,35.7333,140.8333,86.4,77,57,11.5,JP,1689919894
11,port mathurin,-19.6833,63.4167,74.1,62,14,12.62,MU,1689919895
12,prince rupert,54.3161,-130.3201,60.49,88,40,4.61,CA,1689919895
13,coquimbo,-29.9533,-71.3436,55.13,94,100,3.44,CL,1689919792
14,willemstad,12.1084,-68.9335,81.05,86,4,24.23,CW,1689919896
15,sidney,-33.8679,151.2073,65.61,62,75,13.8,AU,1689919874
16,necochea,-38.5473,-58.7368,48.54,89,97,13.89,AR,1689919897
17,cole harbour,44.6724,-63.4751,66.18,98,56,8.05,CA,1689919897
18,road town,18.4167,-64.6167,82.49,71,35,10.18,VG,1689919898
19,buka,40.8108,69.1986,96.46,14,19,6.85,UZ,1689919898
20,arfoud,31.4348,-4.2375,86.5,16,30,8.21,MA,1689919899
21,corpus christi,27.8006,-97.3964,83.98,87,4,4.0,US,1689919273
22,hermanus,-34.4187,19.2345,41.81,72,7,11.45,ZA,1689919899
23,kodiak,57.79,-152.4072,54.91,82,40,4.61,US,1689919880
24,edinburgh of the seven seas,-37.0676,-12.3116,53.87,68,60,25.84,SH,1689919900
25,port elizabeth,-33.918,25.5701,53.89,66,0,16.11,ZA,1689919901
26,lebu,-37.6167,-73.65,53.01,92,100,14.29,CL,1689919901
27,karditsa,39.3656,21.9217,81.99,32,0,2.37,GR,1689919902
28,hadibu,12.65,54.0333,79.18,76,100,24.94,YE,1689919902
29,whitehorse,60.7161,-135.0538,67.8,44,94,1.01,CA,1689919903
30,holualoa,19.6228,-155.9522,73.24,99,100,5.75,US,1689919903
31,atafu village,-8.5421,-172.5159,83.75,76,12,11.27,TK,1689919904
32,huarmey,-10.0681,-78.1522,68.02,84,33,6.53,PE,1689919904
33,bambari,5.768,20.6757,73.44,91,100,1.97,CF,1689919906
34,mitu,1.1983,-70.1733,70.25,99,87,2.28,CO,1689919907
35,carnarvon,-24.8667,113.6333,69.91,31,66,18.68,AU,1689919907
36,richards bay,-28.783,32.0377,57.92,75,100,3.44,ZA,1689919907
37,gorontalo,0.5412,123.0595,87.84,62,20,8.86,ID,1689919908
38,yuzhno-kurilsk,44.0306,145.8556,62.91,86,68,8.75,RU,1689919828
39,el rosario,24.2556,-107.1828,78.42,73,82,7.07,MX,1689919909
40,gargalianoi,37.0667,21.6333,79.41,46,0,8.12,GR,1689919909
41,grytviken,-54.2811,-36.5092,29.32,85,86,6.4,GS,1689919910
42,welshpool,52.6597,-3.1471,57.52,89,93,4.14,GB,1689919910
43,hawaiian paradise park,19.5933,-154.9731,74.71,94,100,3.44,US,1689919911
44,bom jesus,-9.0744,-44.3586,65.61,59,20,4.56,BR,1689919912
45,adamstown,-25.066,-130.1015,70.52,82,100,23.64,PN,1689919913
46,coahuayana de hidalgo,18.7,-103.6583,78.67,83,65,2.77,MX,1689919913
47,dzilam gonzalez,21.2833,-88.9333,76.17,92,58,4.65,MX,1689919914
48,olonkinbyen,70.9221,-8.7187,41.02,83,100,0.13,SJ,1689919914
49,waitangi,-43.9535,-176.5597,46.81,94,84,5.01,NZ,1689919915
50,san antonio de pale,-1.4014,5.6325,73.62,73,100,10.27,GQ,1689919916
51,guerrero negro,27.9769,-114.0611,67.59,84,64,9.26,MX,1689919916
52,ust-nera,64.5667,143.2,77.13,58,45,12.19,RU,1689919916
53,shenjiamen,29.9576,122.298,82.11,85,96,17.45,CN,1689919917
54,nemuro,43.3236,145.575,61.59,88,25,13.67,JP,1689919652
55,st. john's,47.5649,-52.7093,66.56,94,94,4.0,CA,1689919823
56,margaret river,-33.95,115.0667,60.78,63,45,15.35,AU,1689919918
57,ushuaia,-54.8,-68.3,28.06,93,100,5.75,AR,1689919881
58,nadym,65.5333,72.5167,80.49,45,96,10.63,RU,1689919920
59,keetmanshoop,-26.5833,18.1333,44.4,36,0,7.76,NA,1689919920
60,albany,42.6001,-73.9662,71.53,81,28,4.68,US,1689919668
61,camana,-16.6228,-72.7111,62.02,82,29,5.14,PE,1689919921
62,qaqortoq,60.7167,-46.0333,42.73,97,100,9.13,GL,1689919921
63,ancud,-41.8697,-73.8203,51.4,84,98,16.71,CL,1689919922
64,port-aux-francais,-49.35,70.2167,33.13,60,94,23.96,TF,1689919922
65,bilibino,68.0546,166.4372,74.23,46,20,3.44,RU,1689919789
66,pachino,36.7186,15.0907,84.96,53,0,2.28,IT,1689919923
67,invercargill,-46.4,168.35,39.94,81,40,6.42,NZ,1689919828
68,birao,10.2849,22.7882,74.93,89,81,3.15,CF,1689919925
69,walvis bay,-22.9575,14.5053,51.85,84,0,3.83,NA,1689919925
70,kirakira,-10.4544,161.9205,81.19,87,85,6.69,SB,1689919926
71,jamestown,42.097,-79.2353,63.72,99,75,11.5,US,1689919926
72,guli,28.8833,120.0333,94.23,55,79,2.24,CN,1689919927
73,kafue,-15.7691,28.1814,60.73,78,4,12.59,ZM,1689919927
74,bethel,41.3712,-73.414,72.64,85,0,0.0,US,1689919681
75,sitka,57.0531,-135.33,64.29,68,75,0.0,US,1689919928
76,igarka,67.4667,86.5833,80.47,41,46,13.91,RU,1689919928
77,nagqu,31.5,92.0,58.28,32,1,10.09,CN,1689919929
78,badger,64.8,-147.5333,71.51,74,0,3.44,US,1689919929
79,lazaro cardenas,17.9583,-102.2,80.73,85,48,3.04,MX,1689919762
80,hargeysa,9.56,44.065,77.76,45,100,31.59,SO,1689919930
81,egilsstadir,65.2653,-14.3948,40.91,93,100,4.61,IS,1689919826
82,nikolayevsk-on-amure,53.1406,140.73,88.07,47,23,4.29,RU,1689919653
83,stanley,54.868,-1.6985,51.82,90,75,6.91,GB,1689919678
84,makushino,55.2103,67.2442,68.47,71,88,10.2,RU,1689919932
85,solnechnyy,50.7214,136.6319,91.94,29,90,11.72,RU,1689919932
86,peace river,56.2501,-117.286,64.71,72,0,4.61,CA,1689919933
87,tarakan,3.3,117.6333,85.5,79,40,5.75,ID,1689919933
88,new norfolk,-42.7826,147.0587,54.9,64,54,3.8,AU,1689919934
89,udachny,66.4167,112.4,68.45,59,44,5.19,RU,1689919934
90,talnakh,69.4865,88.3972,70.21,89,98,7.67,RU,1689919935
91,ballina,-28.8667,153.5667,66.78,49,31,10.94,AU,1689919935
92,puerto natales,-51.7236,-72.4875,29.8,98,100,2.68,CL,1689919935
93,isafjordur,66.0755,-23.124,50.29,71,62,1.32,IS,1689919788
94,dudinka,69.4058,86.1778,70.63,77,92,5.79,RU,1689919936
95,itoman,26.1247,127.6694,89.4,70,75,13.8,JP,1689919812
96,portland,45.5234,-122.6762,73.06,65,0,5.75,US,1689919854
97,tazacorte,28.629,-17.9293,72.57,93,40,17.27,ES,1689919938
98,yellowknife,62.456,-114.3525,69.57,64,32,5.01,CA,1689919845
99,wailua homesteads,22.0669,-159.378,81.03,77,75,17.27,US,1689919938
100,avarua,-21.2078,-159.775,71.65,60,75,4.61,CK,1689919939
101,sao jose da coroa grande,-8.8978,-35.1478,74.46,77,27,14.25,BR,1689919744
102,bredasdorp,-34.5322,20.0403,40.78,85,1,6.02,ZA,1689919790
103,mata-utu,-13.2816,-176.1745,82.56,76,35,7.07,WF,1689919940
104,fairmont,39.4851,-80.1426,69.39,96,52,3.0,US,1689919940
105,winnemucca,40.973,-117.7357,78.33,8,0,2.53,US,1689919941
106,college,64.8569,-147.8028,71.58,75,20,3.44,US,1689919941
107,lincoln city,44.9582,-124.0179,61.7,92,83,3.0,US,1689919897
108,griffith,41.5284,-87.4237,71.53,78,75,10.36,US,1689919931
109,koungheul,13.9833,-14.8,77.09,88,74,5.39,SN,1689919942
110,basco,20.4487,121.9702,85.26,75,58,13.18,PH,1689919943
111,iqaluit,63.7506,-68.5145,38.93,100,100,5.99,CA,1689919943
112,lander,42.833,-108.7307,63.0,71,0,9.22,US,1689919944
113,pangody,65.85,74.4859,80.19,39,99,12.75,RU,1689919945
114,greymouth,-42.4667,171.2,43.5,75,6,12.35,NZ,1689919779
115,anadyr,64.75,177.4833,59.5,88,75,6.71,RU,1689919945
116,usinsk,65.9939,57.5281,73.94,62,94,7.18,RU,1689919946
117,saint-philippe,-21.3585,55.7679,73.11,74,2,5.03,RE,1689919946
118,colonia,50.9333,6.95,61.97,83,0,3.44,DE,1689919947
119,tanabe,33.7333,135.3667,82.0,73,52,4.16,JP,1689919948
120,tolanaro,-25.0319,46.9987,66.74,80,77,12.41,MG,1689919948
121,itupiranga,-5.1347,-49.3267,71.92,52,81,2.86,BR,1689919799
122,kambove,-10.8764,26.5969,61.41,47,10,8.41,CD,1689919949
123,myanaung,18.2833,95.3167,90.0,59,72,12.24,MM,1689919950
124,mariental,-24.6333,17.9667,46.47,36,0,7.85,NA,1689919950
125,ech chettia,36.1959,1.2554,82.42,42,37,3.44,DZ,1689919951
126,hafnarfjordur,64.0671,-21.9377,53.47,82,100,6.91,IS,1689919951
127,ormara,25.2088,64.6357,83.82,82,88,9.24,PK,1689919897
128,sebastopol,44.6,33.5333,79.0,49,78,1.01,UA,1689919952
129,punta arenas,-53.15,-70.9167,29.73,95,100,14.14,CL,1689919953
130,kitakami,39.2833,141.1167,79.03,73,78,6.08,JP,1689919953
131,dwarka,22.2394,68.9678,84.38,80,99,13.89,IN,1689919954
132,pedro ii,-4.4247,-41.4586,66.24,55,0,8.9,BR,1689919787
133,geraldton,-28.7667,114.6,66.61,52,2,8.05,AU,1689919954
134,kerikeri,-35.2268,173.9474,54.91,87,86,1.99,NZ,1689919955
135,gulf shores,30.246,-87.7008,85.05,76,0,3.44,US,1689919800
136,anloga,5.7947,0.8973,76.8,89,82,13.15,GH,1689919956
137,mezhova,48.2532,36.7347,71.26,76,85,9.78,UA,1689919956
138,zemio,5.0314,25.1361,72.27,95,98,1.16,CF,1689919957
139,malanje,-9.5402,16.341,62.62,59,51,1.34,AO,1689919957
140,howick,-29.4779,30.2306,43.99,83,97,2.66,ZA,1689919958
141,iskateley,67.6803,53.1512,69.44,73,99,13.18,RU,1689919958
142,san justo,-30.7891,-60.5919,55.98,91,99,5.99,AR,1689919959
143,zalari,53.5584,102.5065,76.71,43,22,8.39,RU,1689919959
144,uturoa,-16.7333,-151.4333,75.87,64,28,19.17,PF,1689919815
145,pimentel,-6.8367,-79.9342,70.09,88,75,8.05,PE,1689919960
146,belyy yar,53.6039,91.3903,69.69,83,0,6.71,RU,1689919798
147,pathein,16.7833,94.7333,88.66,64,55,9.93,MM,1689919961
148,utrik,11.2278,169.8474,83.14,80,27,20.29,MH,1689919668
149,bubaque,11.2833,-15.8333,82.17,81,79,12.21,GW,1689919816
150,abu jibeha,11.4562,31.2285,78.76,70,59,9.66,SD,1689919962
151,todos santos,23.45,-110.2167,79.66,79,26,7.65,MX,1689919841
152,port alfred,-33.5906,26.891,52.18,75,74,4.0,ZA,1689919963
153,sarangani,5.4033,125.4636,83.79,74,97,11.43,PH,1689919963
154,merowe,18.4833,31.8167,100.69,10,87,4.63,SD,1689919964
155,gospic,44.5461,15.3747,74.89,67,6,3.49,HR,1689919964
156,dubbo,-32.25,148.6167,57.33,58,75,11.5,AU,1689919965
157,namibe,-15.1961,12.1522,61.88,89,3,4.65,AO,1689919965
158,sumbe,-11.2061,13.8437,68.07,85,66,2.68,AO,1689919966
159,san carlos,9.6612,-68.5827,72.03,97,93,2.55,VE,1689919966
160,mount gambier,-37.8333,140.7667,54.07,74,89,7.09,AU,1689919966
161,sao tome,0.3365,6.7273,75.43,76,93,7.9,ST,1689919967
162,fort bragg,35.139,-79.006,77.58,89,100,9.22,US,1689919879
163,blackmans bay,-43.0167,147.3167,53.73,61,28,3.38,AU,1689919968
164,megion,61.0296,76.1136,73.42,75,100,7.52,RU,1689919968
165,taro,-8.3862,115.28,75.2,53,46,5.03,ID,1689919969
166,kamaishi,39.2667,141.8833,72.9,79,66,4.0,JP,1689919969
167,constantia,44.1833,28.65,79.7,65,11,12.24,RO,1689919763
168,ribeira brava,32.65,-17.0667,72.23,81,5,4.5,PT,1689919970
169,imbituba,-28.24,-48.6703,65.86,95,100,11.92,BR,1689919970
170,fortuna,40.5982,-124.1573,59.94,93,100,3.44,US,1689919732
171,miri,4.4148,114.0089,75.54,92,100,8.3,MY,1689919971
172,itaituba,-4.2761,-55.9836,71.74,64,17,1.23,BR,1689919972
173,vilyuysk,63.7553,121.6247,73.99,47,88,3.0,RU,1689919972
174,wingham,43.8879,-81.3114,66.27,93,62,9.4,CA,1689919973
175,tura,25.5198,90.2201,84.61,81,100,2.95,IN,1689919973
176,charters towers,-20.1,146.2667,75.51,36,61,10.49,AU,1689919974
177,lompoc,34.6391,-120.4579,59.14,95,100,6.91,US,1689919679
178,qianzhou,28.3167,109.7167,93.09,59,72,7.54,CN,1689919975
179,tateyama,34.9833,139.8667,79.88,75,40,6.87,JP,1689919975
180,mwene-ditu,-7.0,23.45,72.75,35,18,3.74,CD,1689919976
181,puerto ayora,-0.7393,-90.3518,76.55,94,36,5.99,EC,1689919976
182,ilulissat,69.2167,-51.1,44.62,87,75,0.0,GL,1689919976
183,san andres,12.5847,-81.7006,82.76,86,100,21.23,CO,1689919681
184,takoradi,4.8845,-1.7554,74.75,93,87,6.26,GH,1689919977
185,mogadishu,2.0371,45.3438,79.23,83,86,21.47,SO,1689919978
186,howard springs,-12.497,131.047,87.82,29,14,3.91,AU,1689919978
187,san patricio,28.017,-97.5169,83.86,82,6,11.3,US,1689919811
188,island harbour,50.724,-1.2758,56.93,88,41,1.01,GB,1689919883
189,ebon,4.582,168.6964,82.65,81,99,11.83,MH,1689919980
190,benghazi,32.1167,20.0667,82.72,65,0,6.35,LY,1689919980
191,villa gesell,-37.2639,-56.973,53.06,92,71,11.65,AR,1689919981
192,tuchow,49.8949,21.0541,63.64,65,91,3.49,PL,1689919981
193,plainview,40.7765,-73.4673,75.45,88,0,5.75,US,1689919929
194,aioun,16.6614,-9.6149,86.22,51,50,18.86,MR,1689919982
195,la'ie,21.6477,-157.9253,80.56,78,26,8.99,US,1689919982
196,ostersund,63.1792,14.6357,50.61,34,100,17.27,SE,1689919983
197,susuman,62.7833,148.1667,84.99,33,21,11.86,RU,1689919983
198,lihue,21.9789,-159.3672,81.64,76,75,17.27,US,1689919695
199,saipan,15.1355,145.701,88.5,100,20,10.36,MP,1689919984
200,sydney,-33.8679,151.2073,65.61,62,75,13.8,AU,1689919700
201,faya-largeau,17.9257,19.1043,90.95,35,68,10.0,TD,1689919985
202,sal rei,16.1833,-22.9167,77.92,84,66,13.67,CV,1689919986
203,bamboo flat,11.7,92.7167,84.29,84,75,12.66,IN,1689919986
204,ramshir,30.8946,49.4092,103.86,5,0,6.2,IR,1689919987
205,alfredo v. bonfil,21.0833,-86.85,80.55,88,40,5.01,MX,1689919987
206,kawm umbu,24.4767,32.9463,98.87,15,2,8.86,EG,1689919988
207,afaahiti,-17.75,-149.2833,71.47,66,28,19.77,PF,1689919689
208,korla,41.7597,86.1469,98.82,13,60,7.94,CN,1689919989
209,tchibanga,-2.85,11.0333,66.24,91,83,1.25,GA,1689919989
210,arraial do cabo,-22.9661,-42.0278,69.4,66,100,16.13,BR,1689919755
211,kunszentmarton,46.8392,20.2888,76.98,96,81,6.08,HU,1689919990
212,alofi,-19.0595,-169.9187,76.19,84,100,25.84,NU,1689919800
213,saint-mandrier-sur-mer,43.078,5.929,76.86,70,0,1.99,FR,1689919991
214,belmonte,-15.8631,-38.8828,71.01,89,65,9.28,BR,1689919992
215,nova sintra,14.8667,-24.7167,73.9,84,11,7.49,CV,1689919992
216,tabalah,19.95,42.4,90.64,6,59,16.91,SA,1689919993
217,khandyga,62.6667,135.6,58.89,91,100,9.1,RU,1689919940
218,terenozek,45.05,64.9833,93.7,21,0,11.61,KZ,1689919994
219,youhao,47.8667,128.8333,89.11,33,95,4.92,CN,1689919994
220,lilongwe,-13.9669,33.7873,63.79,64,2,5.86,MW,1689919995
221,smithers,54.7804,-127.1743,61.12,94,75,11.5,CA,1689919995
222,laguna,38.421,-121.4238,82.92,52,0,4.61,US,1689919996
223,hammerfest,70.6634,23.6821,48.65,93,75,10.36,NO,1689919996
224,east london,-33.0153,27.9116,52.74,66,0,11.5,ZA,1689919997
225,sao vicente,-23.9631,-46.3919,68.27,26,12,2.33,BR,1689919997
226,itajuipe,-14.6781,-39.375,65.77,99,77,2.55,BR,1689919998
227,howrah,22.5892,88.3103,89.6,74,75,9.22,IN,1689919865
228,kununurra,-15.7667,128.7333,87.78,25,10,9.22,AU,1689919999
229,labuan,5.2767,115.2417,78.55,86,100,26.75,MY,1689919999
230,magadan,59.5667,150.8,78.53,71,26,10.78,RU,1689920000
231,north shore,-36.8,174.75,57.0,76,100,8.01,NZ,1689920000
232,freeport,40.6576,-73.5832,75.96,87,0,6.91,US,1689920001
233,kapuskasing,49.4169,-82.4331,53.69,93,40,3.44,CA,1689919922
234,grand falls-windsor,48.9332,-55.6649,67.5,94,100,4.32,CA,1689920002
235,vigan,17.5747,120.3869,86.41,73,12,5.64,PH,1689920002
236,tsiombe,-25.3,45.4833,65.48,66,95,14.14,MG,1689920003
237,shibushi,31.4667,131.105,82.63,80,100,3.83,JP,1689920003
238,yunfu,22.9306,112.0373,94.59,53,50,3.47,CN,1689920004
239,polyarnyy,69.1989,33.4478,47.98,79,100,17.16,RU,1689919839
240,pisco,-13.7,-76.2167,60.03,88,7,4.61,PE,1689920005
241,veydelevka,50.1521,38.4492,66.34,85,100,10.0,RU,1689920005
242,haiku-pauwela,20.9219,-156.3051,76.05,78,20,18.41,US,1689920006
243,sola,-13.8833,167.55,77.67,80,90,18.63,VU,1689919870
244,aras-asan,8.8908,126.3033,84.96,75,82,4.74,PH,1689920007
245,tadmur,34.5608,38.2805,88.18,20,0,8.97,SY,1689920007
246,wuhai,39.6647,106.8122,78.71,38,82,18.79,CN,1689920008
247,ratnagiri,16.9833,73.3,81.7,83,100,15.9,IN,1689920008
248,qarqaraly,49.4058,75.4742,82.56,24,49,10.42,KZ,1689920009
249,alice springs,-23.7,133.8833,65.75,37,0,11.5,AU,1689919734
250,xiva,41.3783,60.3639,89.58,15,0,8.21,UZ,1689920011
251,tazovsky,67.4667,78.7,76.12,42,74,14.27,RU,1689920011
252,fernie,49.5,-115.0687,64.6,67,5,6.91,CA,1689920012
253,queenstown,-31.8976,26.8753,38.97,82,100,0.83,ZA,1689919779
254,crane,31.3974,-102.3501,85.03,32,66,13.69,US,1689920013
255,flin flon,54.7682,-101.865,62.94,68,43,5.35,CA,1689920013
256,alesund,62.4723,6.1549,56.34,96,20,3.44,NO,1689920014
257,virginia,37.5481,-77.4467,77.41,92,75,4.61,US,1689920014
258,codrington,-38.2667,141.9667,53.58,73,76,9.73,AU,1689920014
259,bazarnyye mataki,54.8833,49.9333,71.73,47,13,14.43,RU,1689920015
260,vilyuchinsk,52.9306,158.4028,62.87,89,100,6.51,RU,1689919783
261,longyearbyen,78.2186,15.6401,48.04,81,100,11.5,SJ,1689920016
262,saint-paul,-21.0096,55.2707,78.89,82,7,1.01,RE,1689920016
263,luganville,-15.5333,167.1667,76.17,82,74,8.25,VU,1689920017
264,yinchuan,38.4681,106.2731,84.72,26,84,3.0,CN,1689920017
265,isangel,-19.55,169.2667,69.93,68,8,12.24,VU,1689920018
266,chengzihe,45.3333,131.0667,85.55,66,62,3.87,CN,1689920018
267,fale old settlement,-9.3852,-171.2468,83.8,75,21,11.27,TK,1689919847
268,mugia,43.1041,-9.2179,57.9,83,2,3.71,ES,1689920019
269,zhangatas,43.5667,69.75,91.08,18,66,12.95,KZ,1689920020
270,aral,40.5156,81.2636,102.36,11,81,14.58,CN,1689920020
271,bonthe,7.5264,-12.505,76.95,87,100,6.06,SL,1689920020
272,enewetak,11.3474,162.3373,83.26,79,62,16.69,MH,1689920021
273,wanning,18.8003,110.3967,88.23,69,22,8.3,CN,1689920021
274,paita,-5.0892,-81.1144,70.36,82,14,10.09,PE,1689919885
275,kirkkonummi,60.1238,24.4385,64.8,61,3,9.78,FI,1689920022
276,port lincoln,-34.7333,135.8667,58.24,55,76,11.7,AU,1689919816
277,say,13.1007,2.3689,84.76,65,92,11.14,NE,1689920023
278,jayapura,-2.5333,140.7,87.19,77,65,6.29,ID,1689920023
279,darhan,49.4867,105.9228,77.63,45,30,6.38,MN,1689920024
280,upington,-28.4478,21.2561,39.58,52,0,4.61,ZA,1689920024
281,karratha,-20.7377,116.8463,80.83,28,3,14.23,AU,1689920024
282,akrehamn,59.2667,5.1833,55.99,93,100,4.61,NO,1689920025
283,saint-joseph,-21.3667,55.6167,76.48,72,2,5.37,RE,1689920025
284,port shepstone,-30.7414,30.455,56.43,68,75,7.9,ZA,1689919869
285,ulladulla,-35.35,150.4667,58.59,50,39,14.29,AU,1689919968
286,camacupa,-12.0167,17.4833,59.23,48,23,2.19,AO,1689920027
287,ouarzazat,30.9189,-6.8934,77.29,29,20,3.44,MA,1689920028
288,cannonvale,-20.2833,148.7,70.99,64,67,9.44,AU,1689920028
289,fort wellington,6.4,-57.6,77.47,88,5,6.71,GY,1689920029
290,mizan teferi,6.9833,35.5833,70.21,66,97,0.58,ET,1689920029
291,berdigestyakh,62.0989,126.6992,75.06,45,99,8.68,RU,1689919825
292,saint-denis,48.9167,2.3333,61.29,79,0,5.75,FR,1689920030
293,kruisfontein,-34.0033,24.7314,42.53,71,0,5.93,ZA,1689919911
294,touros,-5.1989,-35.4608,73.08,82,5,12.35,BR,1689920031
295,chonchi,-42.6128,-73.8092,51.12,85,83,8.37,CL,1689919788
296,thompson,55.7435,-97.8558,57.36,82,20,0.0,CA,1689919993
297,toropets,56.4978,31.6353,59.59,63,70,5.5,RU,1689920032
298,minas de marcona,-15.2119,-75.1103,55.67,83,27,5.64,PE,1689919885
299,fort mcmurray,56.7268,-111.381,63.91,77,40,4.61,CA,1689920033
300,rongelap,11.1635,166.8941,83.39,79,88,18.16,MH,1689920033
301,gujar khan,33.2558,73.3026,88.03,64,95,4.29,PK,1689920033
302,el granada,37.5027,-122.4694,66.94,84,100,17.27,US,1689920034
303,hamilton,39.1834,-84.5333,73.09,88,100,1.01,US,1689919952
304,westport,41.1415,-73.3579,74.08,91,0,3.44,US,1689919802
305,motueka,-41.1333,173.0167,44.49,67,68,8.32,NZ,1689920035
306,beyneu,45.3167,55.2,87.53,34,0,4.03,KZ,1689920036
307,novaya igirma,57.1334,103.9112,83.19,28,2,5.93,RU,1689920036
308,verkhotur'ye,58.8627,60.8054,71.28,52,11,9.89,RU,1689920037
309,hithadhoo,-0.6,73.0833,83.73,73,81,14.36,MV,1689919823
310,northam,51.0333,-4.2167,58.66,88,62,8.63,GB,1689920037
311,okhotsk,59.3833,143.3,59.02,80,48,11.97,RU,1689920038
312,sawakin,19.1059,37.3321,98.55,32,99,5.32,SD,1689919821
313,mo i rana,66.3128,14.1428,56.32,87,75,2.3,NO,1689920039
314,mil'kovo,55.6078,37.7956,64.6,62,93,6.58,RU,1689920039
315,usogorsk,63.4106,48.6872,60.89,93,73,6.08,RU,1689920040
316,kristiansund,63.1115,7.732,57.85,72,0,3.44,NO,1689920040
317,newman,37.3138,-121.0208,80.58,55,0,1.99,US,1689920041
318,krasnokamensk,50.0979,118.0369,78.75,37,97,6.89,RU,1689920041
319,trinidad,-14.8333,-64.9,67.78,67,0,2.44,BO,1689919975
320,dryden,49.7833,-92.7503,61.09,88,75,3.44,CA,1689919943
321,lidkoping,58.5052,13.1577,59.02,84,70,13.29,SE,1689920042
322,quellon,-43.1167,-73.6167,50.25,93,75,6.91,CL,1689920043
323,manakara,-22.1333,48.0167,69.53,88,51,8.14,MG,1689920044
324,kuqa,41.7278,82.9364,98.08,14,100,8.5,CN,1689920044
325,alpena,45.0617,-83.4327,64.72,97,100,5.75,US,1689920045
326,canico,32.6333,-16.85,72.23,81,20,9.22,PT,1689920045
327,callao,-12.0667,-77.15,70.09,73,100,8.05,PE,1689920046
328,edson,53.5835,-116.4356,60.94,77,40,0.0,CA,1689920046
329,damara,4.9608,18.7035,73.36,93,100,2.3,CF,1689920046
330,ixmiquilpan,20.4833,-99.2333,61.29,96,14,3.24,MX,1689920047
331,lubao,14.9167,120.55,92.91,64,84,4.61,PH,1689920048
332,douentza,14.9951,-2.9517,87.6,51,87,8.68,ML,1689920048
333,georgetown,5.4112,100.3354,88.23,98,20,9.22,MY,1689919789
334,pacific grove,36.6177,-121.9166,58.24,92,0,5.99,US,1689920049
335,flying fish cove,-10.4217,105.6791,80.28,69,75,16.11,CX,1689920050
336,chambas,22.1928,-78.9136,77.61,95,100,3.91,CU,1689920050
337,nova vicosa,-17.8919,-39.3719,71.58,82,97,16.46,BR,1689920051
338,ponta delgada,37.7333,-25.6667,70.52,88,40,1.14,PT,1689919866
339,wilmington,34.2257,-77.9447,80.85,82,0,10.36,US,1689919929
340,brokopondo,4.75,-55.1667,76.28,88,56,4.47,SR,1689920053
341,roma,43.2128,-75.4557,69.96,83,100,4.61,US,1689920054
342,petropavlovsk-kamchatsky,53.0452,158.6483,63.19,82,75,2.24,RU,1689920054
343,palikir - national government center,6.9248,158.1611,81.66,81,99,17.2,FM,1689920055
344,kone,-21.0595,164.8658,69.13,62,1,7.85,NC,1689920055
345,almazan,41.4865,-2.5309,57.51,78,0,3.0,ES,1689920056
346,formosa do rio preto,-11.0483,-45.1931,61.68,60,3,5.03,BR,1689920056
347,palmer,42.1584,-72.3287,69.17,81,0,0.0,US,1689920057
348,nizhniy kuranakh,58.8353,125.4869,63.28,83,99,8.34,RU,1689920057
349,saint-pierre,-21.3393,55.4781,77.58,88,75,10.36,RE,1689920058
350,celestun,20.8667,-90.4,79.43,83,37,9.98,MX,1689920058
351,bowen,-20.0167,148.2333,73.04,65,82,11.65,AU,1689920058
352,baykal'sk,51.5058,104.1469,56.66,84,18,3.33,RU,1689920059
353,amungan,15.3652,119.9582,85.1,75,93,4.85,PH,1689920060
354,kayenta,36.7278,-110.2546,76.53,34,25,1.88,US,1689919835
355,mount pearl,47.5166,-52.7813,66.54,94,100,19.57,CA,1689920061
356,dakhla,23.6848,-15.958,68.7,86,65,24.87,EH,1689920061
357,zheleznogorsk-ilimskiy,56.5768,104.1217,80.8,28,1,6.55,RU,1689920062
358,jiazi,22.8779,116.067,87.24,72,92,7.67,CN,1689920063
359,puerto baquerizo moreno,-0.9,-89.6,76.6,85,18,11.3,EC,1689920063
360,ventspils,57.3894,21.5606,64.33,88,75,11.5,LV,1689920064
361,newbiggin-by-the-sea,55.1853,-1.5147,54.28,87,75,6.91,GB,1689920064
362,ivanteyevka,55.9711,37.9208,64.06,57,94,1.01,RU,1689920065
363,laramie,41.3114,-105.5911,52.77,94,0,6.91,US,1689919712
364,sinabang,2.4803,96.3801,83.95,72,88,7.96,ID,1689920067
365,mitsamiouli,-11.3847,43.2844,80.02,67,87,8.41,KM,1689920067
366,kill devil hills,36.0307,-75.676,82.42,90,40,9.22,US,1689919909
367,dauphin,51.1494,-100.0502,59.14,94,75,3.44,CA,1689920068
368,shahr-e babak,30.1165,55.1186,91.27,18,73,7.49,IR,1689920068
369,galle,6.0367,80.217,84.13,75,42,12.68,LK,1689919949
370,kattivakkam,13.2167,80.3167,93.29,60,97,18.68,IN,1689920069
371,taltal,-25.4,-70.4833,58.44,87,100,2.26,CL,1689920070
372,azul,-36.777,-59.8585,48.67,93,88,11.97,AR,1689920071
373,hemsby,52.6971,1.6918,55.63,83,21,12.59,GB,1689920072
374,banda aceh,5.5577,95.3222,89.1,57,89,16.87,ID,1689920072
375,at taj,24.2049,23.2857,87.75,14,0,7.61,LY,1689919852
376,ruokolahti,61.2833,28.8333,65.01,77,100,3.0,FI,1689920073
377,hemmoor,53.7,9.1167,59.9,86,52,6.31,DE,1689920073
378,hovd,48.0056,91.6419,79.86,28,3,12.08,MN,1689919780
379,ji'an,27.1172,114.9793,94.39,56,100,6.33,CN,1689920074
380,balcarce,-37.8462,-58.2552,48.81,99,84,8.99,AR,1689920075
381,tralee,52.2704,-9.7026,54.64,90,100,6.08,IE,1689920075
382,alta,69.9689,23.2717,49.26,93,75,3.44,NO,1689920075
383,lata,40.1629,-8.3327,59.07,97,27,1.57,PT,1689920076
384,klyuchi,52.2667,79.1667,87.76,30,41,12.62,RU,1689920076
385,torghay,49.6339,63.4981,79.86,33,49,9.73,KZ,1689920077
386,nunspeet,52.3667,5.7667,61.9,91,96,1.9,NL,1689920078
387,mount isa,-20.7333,139.5,78.57,27,1,12.66,AU,1689920078
388,kourou,5.1552,-52.6478,73.45,91,11,5.55,GF,1689920078
389,paranhos,-23.8928,-55.4311,66.36,74,9,9.51,BR,1689920079
390,bathsheba,13.2167,-59.5167,81.21,83,20,11.5,BB,1689920079
391,champerico,14.3,-91.9167,80.06,75,94,4.74,GT,1689920080
392,camalu,30.85,-116.0667,68.43,82,12,5.53,MX,1689920080
393,ghat,24.9647,10.1728,86.31,21,0,3.22,LY,1689920081
394,talitsa,56.8804,60.0213,70.34,55,25,13.0,RU,1689920081
395,remire-montjoly,4.9167,-52.2667,73.44,94,0,0.0,GF,1689920082
396,mejit,10.2753,170.8646,82.85,83,85,20.38,MH,1689920082
397,mariestad,58.7097,13.8237,59.38,88,59,13.27,SE,1689920083
398,kachug,53.9606,105.8817,80.74,27,93,4.83,RU,1689919940
399,luang namtha,20.9497,101.4011,86.02,70,75,2.3,LA,1689920084
400,cabo san lucas,22.8909,-109.9124,90.61,61,8,11.16,MX,1689919905
401,cobija,-11.0267,-68.7692,69.12,70,0,1.9,BO,1689919831
402,wenling,28.3669,121.36,85.93,79,97,13.0,CN,1689919788
403,salekhard,66.53,66.6019,77.7,53,62,7.14,RU,1689920086
404,bardai,11.65,7.2333,73.53,84,100,8.97,NG,1689920086
405,katsuura,35.1333,140.3,78.87,77,58,13.06,JP,1689919865
406,lakatoro,-16.0999,167.4164,76.12,79,60,11.14,VU,1689920087
407,kapa'a,22.0752,-159.319,82.38,77,75,17.27,US,1689920087
408,tadine,-21.55,167.8833,68.81,67,2,13.22,NC,1689920088
409,kozloduy,43.7833,23.7333,79.11,51,2,2.39,BG,1689920089
410,kita,13.0349,-9.4895,74.86,93,95,3.51,ML,1689920089
411,ola,59.5833,151.2833,79.14,79,26,11.83,RU,1689920089
412,acarau,-2.8856,-40.12,77.11,73,5,16.89,BR,1689920090
413,at-bashi,41.1702,75.8106,76.77,38,96,2.19,KG,1689920090
414,bouarfa,32.53,-1.95,76.39,37,49,5.75,MA,1689920091
415,hauterive,46.0901,3.4459,68.76,64,58,1.83,FR,1689920091
416,canutama,-6.5339,-64.3831,71.69,62,8,2.1,BR,1689920092
417,bratsk,56.1325,101.6142,80.35,36,0,5.12,RU,1689919972
418,thunder bay,48.4001,-89.3168,57.18,94,0,5.75,CA,1689920093
419,vorgashor,67.5833,63.95,75.02,56,16,11.12,RU,1689920094
420,boa vista,2.8197,-60.6733,78.78,83,20,2.3,BR,1689920094
421,waycross,31.2136,-82.354,82.45,93,0,4.61,US,1689920095
422,ghanzi,-21.5667,21.7833,52.02,81,84,17.2,BW,1689920095
423,la passe,45.5549,-0.8967,64.98,78,8,6.33,FR,1689920095
424,nova xavantina,-14.6667,-52.35,65.52,48,5,3.06,BR,1689920096
425,kailua-kona,19.6406,-155.9956,76.96,99,100,5.75,US,1689919845
426,tanjung pandan,-2.75,107.65,87.84,58,95,8.79,ID,1689920097
427,pula,44.8683,13.8481,79.36,69,20,8.05,HR,1689920097
428,pionerskiy,54.9508,20.2275,62.44,76,61,18.21,RU,1689920098
429,villamontes,-21.25,-63.5,60.53,81,3,4.61,BO,1689920098
430,sao gabriel da cachoeira,-0.1303,-67.0892,71.92,94,21,0.54,BR,1689920098
431,hinton,53.4001,-117.5857,57.88,85,44,1.16,CA,1689920099
432,tulun,54.5611,100.5792,78.28,36,0,11.25,RU,1689920099
433,revda,56.801,59.9303,67.39,58,28,12.73,RU,1689920100
434,barra,-11.0894,-43.1417,67.66,68,3,9.04,BR,1689920100
435,bel ombre,-4.6167,55.4167,80.44,83,75,17.27,SC,1689920101
436,karema,-6.8205,30.4389,73.2,44,0,11.52,TZ,1689920101
437,veraval,20.9,70.3667,83.46,80,84,16.53,IN,1689920102
438,taguatinga,-12.3857,-46.5711,70.02,54,0,11.59,BR,1689920103
439,weno,7.4515,151.8468,87.75,79,75,5.75,FM,1689920103
440,troitsko-pechorsk,62.7084,56.1964,69.33,59,76,7.34,RU,1689920104
441,malpica,43.3228,-8.8105,61.38,95,10,3.18,ES,1689920105
442,erenhot,43.6475,111.9767,85.21,28,93,8.48,CN,1689920105
443,skowhegan,44.7651,-69.7192,64.96,96,7,2.21,US,1689920106
444,hilo,19.7297,-155.09,74.93,89,100,3.44,US,1689920106
445,rada tilly,-45.9333,-67.5333,52.29,50,0,3.44,AR,1689920107
446,embi,48.8264,58.1442,79.81,28,4,9.75,KZ,1689920107
447,siwa oasis,29.2041,25.5195,88.27,32,0,8.66,EG,1689920108
448,chela,34.069,104.4619,76.12,45,0,3.85,CN,1689920108
449,shingu,33.7333,135.9833,81.52,73,67,5.68,JP,1689920109
450,kuloy,61.0305,42.4925,54.88,97,100,12.08,RU,1689920109
451,port-gentil,-0.7193,8.7815,73.26,82,75,10.07,GA,1689920110
452,terrace,54.5163,-128.6035,71.51,56,75,12.66,CA,1689920110
453,puerto deseado,-47.7503,-65.8938,47.3,64,58,25.3,AR,1689920111
454,beledweyne,4.7358,45.2036,84.36,52,99,23.42,SO,1689920111
455,kharp,66.8014,65.8081,74.07,66,25,5.95,RU,1689920112
456,byron bay,-28.65,153.6167,66.7,50,27,9.28,AU,1689919996
457,sao pedro do piaui,-5.9294,-42.7186,67.86,58,9,6.29,BR,1689920113
458,mermoz boabab,14.7065,-17.4758,81.16,81,97,13.44,SN,1689920113
459,zahedan,29.4963,60.8629,91.31,17,100,9.22,IR,1689920114
460,verkhnevilyuysk,63.4453,120.3167,71.31,58,97,4.43,RU,1689920114
461,itanhaem,-24.1831,-46.7889,63.03,93,39,2.39,BR,1689920115
462,felege neway,6.3,36.8833,63.86,96,100,3.27,ET,1689920115
463,castanos,26.7833,-101.4167,87.35,41,70,11.65,MX,1689920116
464,nicoya,10.1483,-85.452,76.06,90,74,3.38,CR,1689920116
465,pokrovka,42.3414,78.0056,61.39,87,97,1.01,KG,1689920117
466,saint-felix-de-valois,46.1668,-73.4324,70.12,89,63,1.01,CA,1689920118
467,gabu,12.2833,-14.2167,75.0,99,89,3.85,GW,1689920118
468,port-cartier,50.0334,-66.8654,56.88,80,54,3.04,CA,1689920119
469,darwin,-12.4611,130.8418,89.58,36,0,8.99,AU,1689920120
470,antsohihy,-14.8796,47.9875,81.99,57,61,9.46,MG,1689920120
471,nyurba,63.2842,118.3319,71.82,57,99,7.43,RU,1689920121
472,porto novo,6.4965,2.6036,75.56,92,89,5.21,BJ,1689919859
473,santa cruz,-17.8,-63.1667,67.46,83,0,8.05,BO,1689920036
474,nejo,9.5,35.5,60.37,94,100,2.26,ET,1689920122
475,eilat,29.5581,34.9482,93.04,21,0,5.75,IL,1689920123
476,ati,13.2154,18.3353,81.01,57,92,8.01,TD,1689920123
477,piti village,13.4626,144.6933,90.48,69,20,10.36,GU,1689920125
478,ankazoabo,-22.2833,44.5167,69.71,61,26,13.0,MG,1689920127
479,vanino,49.0869,140.2543,79.32,59,23,8.03,RU,1689920127
480,princeville,45.7668,-61.2985,68.41,97,100,4.61,CA,1689920128
481,carutapera,-1.195,-46.02,74.05,94,29,4.52,BR,1689919892
482,kharan,28.5833,65.4167,99.37,23,96,6.58,PK,1689920129
483,aasiaat,68.7098,-52.8699,38.21,98,98,5.64,GL,1689919834
484,itagi,-14.1628,-40.0061,65.97,98,95,3.33,BR,1689920130
485,guichon,-32.35,-57.2,58.89,95,59,9.33,UY,1689920130
486,taksimo,56.3444,114.8794,74.71,41,48,2.08,RU,1689920131
487,thakhek,17.4103,104.8307,86.11,62,94,3.85,LA,1689920131
488,amursk,50.2261,136.8994,93.36,34,85,14.5,RU,1689920132
489,malabar,-33.9667,151.25,65.3,62,75,8.05,AU,1689920132
490,katsuren-haebaru,26.3369,127.8719,89.4,68,40,12.66,JP,1689920132
491,brisas de zicatela,15.8369,-97.0419,81.61,77,62,4.52,MX,1689920133
492,envira,-7.3,-70.2167,73.62,72,89,2.24,BR,1689920134
493,ugoofaaru,5.6667,73.0,82.04,79,100,18.28,MV,1689920134
494,gornyy,55.1153,83.9059,77.92,51,100,8.05,RU,1689920134
495,lospalos,-8.5186,127.0025,77.11,60,5,12.15,TL,1689920135
496,linxi,39.7,118.4333,84.2,45,100,9.28,CN,1689920136
497,grindsted,55.754,8.9123,57.65,87,20,4.61,DK,1689919950
498,bereznik,62.8551,42.7072,63.0,94,84,1.88,RU,1689920136
499,rio grande,-32.035,-52.0986,59.95,97,82,13.42,BR,1689920137
500,jesus maria,-30.9815,-64.0942,61.5,54,57,18.88,AR,1689920138
501,baker city,44.7749,-117.8344,75.6,44,0,0.0,US,1689920138
502,palangkaraya,-2.2,113.8333,78.64,87,100,0.83,ID,1689920139
503,gornozavodsk,58.3758,58.3211,63.16,69,38,10.98,RU,1689920139
504,keflavik,64.0049,-22.5624,53.51,93,100,10.36,IS,1689920140
505,thames,-37.1333,175.5333,53.13,84,100,16.64,NZ,1689920140
506,amble,55.3333,-1.5833,54.36,93,75,3.44,GB,1689920140
507,ar rutbah,33.0381,40.2848,91.9,14,0,9.35,IQ,1689920141
508,bima,-8.4667,118.7167,89.2,43,3,9.31,ID,1689919853
509,tianshui,34.5439,105.6897,86.0,28,0,4.32,CN,1689920142
510,nabinagar,23.8917,90.9733,93.33,70,97,9.6,BD,1689920142
511,picsi,-6.7178,-79.7697,69.64,88,75,8.05,PE,1689919919
512,tselinnoye,53.0833,85.6667,83.77,37,22,9.31,RU,1689920143
513,kulu,39.0951,33.0799,79.83,26,0,6.64,TR,1689920144
514,axim,4.8699,-2.2405,75.09,92,87,6.35,GH,1689920144
515,taoudenni,22.6783,-3.9836,95.0,9,46,5.57,ML,1689920144
516,kavaratti,10.5669,72.642,82.78,80,98,20.87,IN,1689920145
517,manacapuru,-3.2997,-60.6206,76.03,58,7,3.4,BR,1689920145
518,orange,33.7,-117.7675,81.23,68,0,5.75,US,1689919948
519,umm kaddadah,13.6017,26.6876,84.47,50,70,11.99,SD,1689920146
520,kandyagash,49.4744,57.4233,77.38,33,24,12.57,KZ,1689920147
521,guaruja,-23.9931,-46.2564,64.89,26,3,2.48,BR,1689920147
522,kristinestad,62.2743,21.376,61.11,71,32,4.81,FI,1689920148
523,yuanping,38.7153,112.7575,90.32,34,2,13.85,CN,1689920148
524,lagunas,-5.2269,-75.6753,69.85,99,21,1.01,PE,1689920149
525,vizinga,61.0749,50.1031,59.85,94,100,6.89,RU,1689920149
526,hohhot,40.8106,111.6522,78.91,64,40,6.71,CN,1689920150
527,ta`u,-14.2336,-169.5144,80.38,83,82,17.29,AS,1689920150
528,margarita belen,-27.2616,-58.9722,68.05,74,88,10.96,AR,1689920150
529,port macquarie,-31.4333,152.9167,61.9,53,82,8.95,AU,1689920151
530,port moresby,-9.4431,147.1797,78.73,78,85,16.8,PG,1689920151
531,bafra,41.5678,35.9069,81.72,52,0,4.59,TR,1689920152
532,eydhafushi,5.1033,73.0708,82.06,79,100,16.6,MV,1689920152
533,kuanda,56.3161,116.0806,69.8,50,40,2.68,RU,1689920153
534,rangia,26.4667,91.6333,85.95,66,100,10.54,IN,1689920153
535,labrador city,52.9463,-66.9114,53.51,94,100,0.0,CA,1689920154
536,langepas,61.2544,75.2124,68.05,72,100,5.37,RU,1689920154
537,mao,39.8885,4.2658,81.16,100,20,3.44,ES,1689920154
538,balsas,-7.5325,-46.0356,67.57,42,0,2.71,BR,1689920155
539,palo santo,-25.5633,-59.3378,68.23,76,25,9.53,AR,1689920155
540,laojunmiao,39.8333,97.7333,80.44,18,25,14.92,CN,1689920156
541,eureka,40.8021,-124.1637,60.21,91,19,5.99,US,1689920156
542,jiagedaqi,50.4167,124.1167,82.0,27,97,5.26,CN,1689920157
543,prineville,44.2999,-120.8345,74.1,40,40,5.75,US,1689920159
544,salinas,36.6777,-121.6555,63.99,90,0,5.75,US,1689919326
545,kiunga,-6.1219,141.2906,81.3,84,98,1.95,PG,1689920160
546,vernon,50.2581,-119.2691,79.41,43,70,2.3,CA,1689920162
547,magistral'nyy,56.1725,107.4458,80.15,30,4,4.43,RU,1689920162
548,la sarre,48.8002,-79.1996,57.74,87,100,2.84,CA,1689920163
549,kabalo,-6.05,26.9167,79.11,34,19,5.46,CD,1689920163
550,letlhakeng,-24.0944,25.0298,51.71,76,74,19.64,BW,1689920164
551,puerto francisco de orellana,-0.4667,-76.9667,69.6,100,97,0.74,EC,1689920165
552,harstad,68.799,16.5293,58.8,95,85,1.01,NO,1689920165
553,salonta,46.8,21.65,77.9,52,33,4.45,RO,1689920166
554,morondava,-20.2833,44.2833,76.77,51,0,9.53,MG,1689920166
555,port douglas,-16.4833,145.4667,73.76,72,71,8.55,AU,1689920158
556,yugo-kamskiy,57.7053,55.5894,68.02,54,35,13.02,RU,1689920167
557,manaure,11.7751,-72.4445,82.47,70,15,18.84,CO,1689920168
558,fortaleza,-3.7227,-38.5247,75.33,73,0,9.22,BR,1689919966
559,yeniseysk,58.4497,92.1703,83.17,31,92,11.77,RU,1689919996
560,fallon,39.4735,-118.7774,84.92,22,0,3.44,US,1689920169
561,urucuca,-14.5931,-39.2844,65.8,99,75,3.0,BR,1689920170
562,rouissat,31.9243,5.3502,87.87,11,0,0.0,DZ,1689920170
563,songling,31.1933,120.7176,90.19,64,100,5.28,CN,1689920171
564,riosucio,5.4216,-75.7032,60.01,86,100,0.38,CO,1689920171
565,kedrovyy,56.1667,91.8167,72.01,48,94,5.26,RU,1689920172
566,crete,35.1558,24.895,82.4,29,0,4.25,GR,1689920173
567,vorkuta,67.5,64.0,75.4,56,11,11.34,RU,1689920173
568,yamada,39.4667,141.95,73.81,75,74,5.17,JP,1689920062
569,sucua,-2.4667,-78.1667,66.7,87,53,2.55,EC,1689920174
570,tipasa,36.5897,2.4475,84.22,59,31,2.08,DZ,1689920175
571,dolinsk,47.35,142.8,76.98,63,62,10.87,RU,1689920175
572,puerto leguizamo,-0.1934,-74.7819,69.89,99,51,2.01,CO,1689920176
573,margate,51.3813,1.3862,60.69,77,81,5.01,GB,1689920176
574,kelmentsi,48.4656,26.83,65.75,71,1,6.38,UA,1689920177
575,greenland,43.0362,-70.8328,67.91,95,20,0.0,US,1689920177
576,porto murtinho,-21.6989,-57.8825,68.95,69,10,5.01,BR,1689920178
577,valdivia,-39.8142,-73.2459,51.89,96,100,8.86,CL,1689920050
578,douglas,41.3,-96.167,69.1,80,0,6.91,US,1689920132
579,hami,42.8,93.45,100.94,10,90,8.01,CN,1689920179
580,hola,51.5377,23.1902,59.18,81,52,4.94,PL,1689920180
